<Document xmlns="http://www.opengis.net/kml/2.2" xmlns:atom="http://www.w3.org/2005/Atom" xmlns:gx="http://www.google.com/kml/ext/2.2"><Style id="icon-503-ff000000-normal"><IconStyle><color>ff000000</color><scale>1.1</scale><Icon><href>http://www.gstatic.com/mapspro/images/stock/503-wht-blank_maps.png</href></Icon><hotspot x="16" y="31" xunits="pixels" yunits="insetPixels"></hotspot></IconStyle><LabelStyle><scale>1.1</scale></LabelStyle></Style><Style id="icon-503-ffff0000-normal"><IconStyle><color>ffff0000</color><scale>1.1</scale><Icon><href>http://www.gstatic.com/mapspro/images/stock/503-wht-blank_maps.png</href></Icon><hotspot x="16" y="31" xunits="pixels" yunits="insetPixels"></hotspot></IconStyle><LabelStyle><scale>1.1</scale></LabelStyle></Style><Style id="icon-503-ff00ff55-normal"><IconStyle><color>ff00ff55</color><scale>1.1</scale><Icon><href>http://www.gstatic.com/mapspro/images/stock/503-wht-blank_maps.png</href></Icon><hotspot x="16" y="31" xunits="pixels" yunits="insetPixels"></hotspot></IconStyle><LabelStyle><scale>1.1</scale></LabelStyle></Style><Style id="icon-503-ffff00aa-normal"><IconStyle><color>ffff00aa</color><scale>1.1</scale><Icon><href>http://www.gstatic.com/mapspro/images/stock/503-wht-blank_maps.png</href></Icon><hotspot x="16" y="31" xunits="pixels" yunits="insetPixels"></hotspot></IconStyle><LabelStyle><scale>1.1</scale></LabelStyle></Style><Style id="icon-503-ff00ffff-normal"><IconStyle><color>ff00ffff</color><scale>1.1</scale><Icon><href>http://www.gstatic.com/mapspro/images/stock/503-wht-blank_maps.png</href></Icon><hotspot x="16" y="31" xunits="pixels" yunits="insetPixels"></hotspot></IconStyle><LabelStyle><scale>1.1</scale></LabelStyle></Style><Style id="icon-503-ff0000ff-normal"><IconStyle><color>ff0000ff</color><scale>1.1</scale><Icon><href>http://www.gstatic.com/mapspro/images/stock/503-wht-blank_maps.png</href></Icon><hotspot x="16" y="31" xunits="pixels" yunits="insetPixels"></hotspot></IconStyle><LabelStyle><scale>1.1</scale></LabelStyle></Style><Folder><name>species number: unassigned</name><Placemark><name>specimen=aura_ZCMV1234</name><styleUrl>#icon-503-ffff0000-normal</styleUrl><Point><coordinates>48.29446319,-18.840597</coordinates></Point></Placemark><Placemark><name>specimen=aura_ZCMV1235</name><styleUrl>#icon-503-ffff0000-normal</styleUrl><Point><coordinates>48.29446319,-18.840597</coordinates></Point></Placemark><Placemark><name>specimen=aura_ZCMV1236</name><styleUrl>#icon-503-ffff0000-normal</styleUrl><Point><coordinates>48.29446319,-18.840597</coordinates></Point></Placemark><Placemark><name>specimen=aura_ZCMV1238 </name><styleUrl>#icon-503-ffff0000-normal</styleUrl><Point><coordinates>48.36801703,-18.86239067</coordinates></Point></Placemark><Placemark><name>specimen=aura_ZCMV1239</name><styleUrl>#icon-503-ffff0000-normal</styleUrl><Point><coordinates>48.37516196,-19.03095015</coordinates></Point></Placemark><Placemark><name>specimen=aura_FGZC987</name><styleUrl>#icon-503-ffff0000-normal</styleUrl><Point><coordinates>48.43354627,-19.0903783</coordinates></Point></Placemark><Placemark><name>specimen=aura_FGZC986</name><styleUrl>#icon-503-ffff0000-normal</styleUrl><Point><coordinates>48.43232143,-19.00315826</coordinates></Point></Placemark><Placemark><name>specimen=crocea_ZCMV234</name><styleUrl>#icon-503-ffff0000-normal</styleUrl><Point><coordinates>47.28694011,-18.20674021</coordinates></Point></Placemark><Placemark><name>specimen=crocea_ZCMV235</name><styleUrl>#icon-503-ffff0000-normal</styleUrl><Point><coordinates>47.28694,-18.2067</coordinates></Point></Placemark><Placemark><name>specimen=miloty_ACZC324</name><styleUrl>#icon-503-ffff0000-normal</styleUrl><Point><coordinates>48.41599015,-18.48933842</coordinates></Point></Placemark><Placemark><name>specimen=miloty_ACZC329</name><styleUrl>#icon-503-ffff0000-normal</styleUrl><Point><coordinates>48.41435702,-18.49979271</coordinates></Point></Placemark><Placemark><name>specimen=crocea_ZCMV236</name><styleUrl>#icon-503-ffff0000-normal</styleUrl><Point><coordinates>48.73102035,-17.50672593</coordinates></Point></Placemark><Placemark><name>specimen=crocea_ZCMV237 </name><styleUrl>#icon-503-ffff0000-normal</styleUrl><Point><coordinates>48.98115884,-15.6480221</coordinates></Point></Placemark><Placemark><name>specimen=miloty_ACZV679</name><styleUrl>#icon-503-ffff0000-normal</styleUrl><Point><coordinates>48.41599015,-18.45332435</coordinates></Point></Placemark><Placemark><name>specimen=miloty_ZCMV479</name><styleUrl>#icon-503-ffff0000-normal</styleUrl><Point><coordinates>48.44293675,-18.37546169</coordinates></Point></Placemark><Placemark><name>specimen=miloty_ZCMV480</name><styleUrl>#icon-503-ffff0000-normal</styleUrl><Point><coordinates>48.42048125,-18.52611918</coordinates></Point></Placemark><Placemark><name>specimen=miloty_ZCMV481</name><styleUrl>#icon-503-ffff0000-normal</styleUrl><Point><coordinates>48.42048125,-18.52611918</coordinates></Point></Placemark></Folder></Document>